[
  {
    "templeId": "TN_THA_THA_brihadeeswarar-temple",
    "name": "Brihadeeswarar Temple",
    "state": "Tamil Nadu",
    "stateCode": "TN",
    "district": "Thanjavur",
    "districtCode": "THA",
    "city": "Thanjavur",
    "cityCode": "THA",
    "deity": "Lord Shiva",
    "built": "1010 CE",
    "builtBy": "Raja Raja Chola I",
    "style": "Dravidian",
    "latitude": 10.7825,
    "longitude": 79.1317,
    "description": "UNESCO World Heritage Site, one of the largest temples in India with 216-foot tall vimana"
  },
  {
    "templeId": "TN_MAD_MAD_meenakshi-temple",
    "name": "Meenakshi Temple",
    "state": "Tamil Nadu",
    "stateCode": "TN",
    "district": "Madurai",
    "districtCode": "MAD",
    "city": "Madurai",
    "cityCode": "MAD",
    "deity": "Goddess Meenakshi",
    "built": "17th century",
    "style": "Dravidian",
    "latitude": 9.9195,
    "longitude": 78.1193,
    "description": "Famous for its towering gopurams and thousand pillar hall"
  },
  {
    "templeId": "AP_CHI_TIR_tirupati-balaji-temple",
    "name": "Tirupati Balaji Temple",
    "state": "Andhra Pradesh",
    "stateCode": "AP",
    "district": "Chittoor",
    "districtCode": "CHI",
    "city": "Tirupati",
    "cityCode": "TIR",
    "deity": "Lord Venkateswara",
    "built": "300 CE",
    "style": "Dravidian",
    "latitude": 13.6833,
    "longitude": 79.3472,
    "description": "Richest and most visited Hindu temple in the world"
  },
  {
    "templeId": "GJ_GIR_PRA_somnath-temple",
    "name": "Somnath Temple",
    "state": "Gujarat",
    "stateCode": "GJ",
    "district": "Gir Somnath",
    "districtCode": "GIR",
    "city": "Prabhas Patan",
    "cityCode": "PRA",
    "deity": "Lord Shiva",
    "built": "Rebuilt 1951",
    "style": "Chalukya",
    "latitude": 20.8880,
    "longitude": 70.4013,
    "description": "First among the twelve Jyotirlinga shrines of Shiva"
  },
  {
    "templeId": "temple_005",
    "name": "Kedarnath Temple",
    "state": "Uttarakhand",
    "city": "Kedarnath",
    "deity": "Lord Shiva",
    "built": "8th century",
    "style": "North Indian",
    "latitude": 30.7346,
    "longitude": 79.0669,
    "description": "One of the twelve Jyotirlingas, located in the Himalayas"
  },
  {
    "templeId": "temple_006",
    "name": "Badrinath Temple",
    "state": "Uttarakhand",
    "city": "Badrinath",
    "deity": "Lord Vishnu",
    "built": "8th century",
    "style": "North Indian",
    "latitude": 30.7433,
    "longitude": 79.4938,
    "description": "One of the Char Dham pilgrimage sites"
  },
  {
    "templeId": "temple_007",
    "name": "Jagannath Temple",
    "state": "Odisha",
    "city": "Puri",
    "deity": "Lord Jagannath",
    "built": "12th century",
    "style": "Kalinga",
    "latitude": 19.8048,
    "longitude": 85.8182,
    "description": "Famous for the annual Rath Yatra festival"
  },
  {
    "templeId": "temple_008",
    "name": "Konark Sun Temple",
    "state": "Odisha",
    "city": "Konark",
    "deity": "Surya",
    "built": "13th century",
    "style": "Kalinga",
    "latitude": 19.8876,
    "longitude": 86.0945,
    "description": "UNESCO World Heritage Site, shaped like a giant chariot"
  },
  {
    "templeId": "temple_009",
    "name": "Kashi Vishwanath Temple",
    "state": "Uttar Pradesh",
    "city": "Varanasi",
    "deity": "Lord Shiva",
    "built": "1780",
    "style": "North Indian",
    "latitude": 25.3109,
    "longitude": 83.0107,
    "description": "One of the twelve Jyotirlingas, located on the banks of Ganges"
  },
  {
    "templeId": "temple_010",
    "name": "Golden Temple (Kashi Vishwanath)",
    "state": "Punjab",
    "city": "Amritsar",
    "deity": "Guru Granth Sahib",
    "built": "1604",
    "style": "Sikh",
    "latitude": 31.6200,
    "longitude": 74.8765,
    "description": "Holiest Gurdwara of Sikhism, covered in gold"
  },
  {
    "templeId": "temple_011",
    "name": "Ramanathaswamy Temple",
    "state": "Tamil Nadu",
    "city": "Rameswaram",
    "deity": "Lord Shiva",
    "built": "12th century",
    "style": "Dravidian",
    "latitude": 9.2876,
    "longitude": 79.3129,
    "description": "One of the twelve Jyotirlingas, famous for its corridors"
  },
  {
    "templeId": "temple_012",
    "name": "Virupaksha Temple",
    "state": "Karnataka",
    "city": "Hampi",
    "deity": "Lord Shiva",
    "built": "7th century",
    "style": "Vijayanagara",
    "latitude": 15.3350,
    "longitude": 76.4600,
    "description": "UNESCO World Heritage Site, oldest functioning temple in India"
  },
  {
    "templeId": "temple_013",
    "name": "Hoysaleswara Temple",
    "state": "Karnataka",
    "city": "Halebidu",
    "deity": "Lord Shiva",
    "built": "1121 CE",
    "style": "Hoysala",
    "latitude": 13.2167,
    "longitude": 75.9967,
    "description": "Masterpiece of Hoysala architecture with intricate carvings"
  },
  {
    "templeId": "temple_014",
    "name": "Chennakeshava Temple",
    "state": "Karnataka",
    "city": "Belur",
    "deity": "Lord Vishnu",
    "built": "1117 CE",
    "style": "Hoysala",
    "latitude": 13.1656,
    "longitude": 75.8656,
    "description": "Magnificent Hoysala temple with star-shaped platform"
  },
  {
    "templeId": "temple_015",
    "name": "Kailasa Temple",
    "state": "Maharashtra",
    "city": "Ellora",
    "deity": "Lord Shiva",
    "built": "8th century",
    "style": "Rock-cut",
    "latitude": 20.0244,
    "longitude": 75.1794,
    "description": "Largest monolithic rock excavation in the world"
  },
  {
    "templeId": "temple_016",
    "name": "Siddhivinayak Temple",
    "state": "Maharashtra",
    "city": "Mumbai",
    "deity": "Lord Ganesha",
    "built": "1801",
    "style": "Modern",
    "latitude": 19.0176,
    "longitude": 72.8300,
    "description": "One of the richest temples in Mumbai"
  },
  {
    "templeId": "temple_017",
    "name": "Mahalakshmi Temple",
    "state": "Maharashtra",
    "city": "Kolhapur",
    "deity": "Goddess Mahalakshmi",
    "built": "7th century",
    "style": "Hemadpanthi",
    "latitude": 16.7050,
    "longitude": 74.2433,
    "description": "One of the Shakti Peethas"
  },
  {
    "templeId": "temple_018",
    "name": "Dwarkadhish Temple",
    "state": "Gujarat",
    "city": "Dwarka",
    "deity": "Lord Krishna",
    "built": "2500 years ago",
    "style": "Chalukya",
    "latitude": 22.2394,
    "longitude": 68.9678,
    "description": "One of the Char Dham pilgrimage sites"
  },
  {
    "templeId": "temple_019",
    "name": "Akshardham Temple",
    "state": "Delhi",
    "city": "New Delhi",
    "deity": "Swaminarayan",
    "built": "2005",
    "style": "Modern",
    "latitude": 28.6127,
    "longitude": 77.2773,
    "description": "Modern architectural marvel with traditional craftsmanship"
  },
  {
    "templeId": "temple_020",
    "name": "Lotus Temple",
    "state": "Delhi",
    "city": "New Delhi",
    "deity": "Bahai Faith",
    "built": "1986",
    "style": "Modern",
    "latitude": 28.5535,
    "longitude": 77.2588,
    "description": "Unique lotus-shaped temple, open to all religions"
  },
  {
    "templeId": "temple_021",
    "name": "Kandariya Mahadeva Temple",
    "state": "Madhya Pradesh",
    "city": "Khajuraho",
    "deity": "Lord Shiva",
    "built": "1050 CE",
    "style": "Nagara",
    "latitude": 24.8518,
    "longitude": 79.9199,
    "description": "Largest and most ornate temple in Khajuraho"
  },
  {
    "templeId": "temple_022",
    "name": "Mahakaleshwar Temple",
    "state": "Madhya Pradesh",
    "city": "Ujjain",
    "deity": "Lord Shiva",
    "built": "Ancient",
    "style": "Maratha",
    "latitude": 23.1828,
    "longitude": 75.7683,
    "description": "One of the twelve Jyotirlingas"
  },
  {
    "templeId": "temple_023",
    "name": "Omkareshwar Temple",
    "state": "Madhya Pradesh",
    "city": "Omkareshwar",
    "deity": "Lord Shiva",
    "built": "Ancient",
    "style": "Nagara",
    "latitude": 22.2394,
    "longitude": 76.1461,
    "description": "One of the twelve Jyotirlingas, located on an island"
  },
  {
    "templeId": "temple_024",
    "name": "Padmanabhaswamy Temple",
    "state": "Kerala",
    "city": "Thiruvananthapuram",
    "deity": "Lord Vishnu",
    "built": "8th century",
    "style": "Kerala",
    "latitude": 8.4829,
    "longitude": 76.9494,
    "description": "Richest temple in the world by assets"
  },
  {
    "templeId": "temple_025",
    "name": "Guruvayur Temple",
    "state": "Kerala",
    "city": "Guruvayur",
    "deity": "Lord Krishna",
    "built": "16th century",
    "style": "Kerala",
    "latitude": 10.5944,
    "longitude": 76.0392,
    "description": "One of the most important Krishna temples in India"
  },
  {
    "templeId": "temple_026",
    "name": "Sabarimala Temple",
    "state": "Kerala",
    "city": "Pathanamthitta",
    "deity": "Lord Ayyappa",
    "built": "12th century",
    "style": "Kerala",
    "latitude": 9.4347,
    "longitude": 77.0806,
    "description": "One of the largest annual pilgrimages in the world"
  },
  {
    "templeId": "temple_027",
    "name": "Kamakhya Temple",
    "state": "Assam",
    "city": "Guwahati",
    "deity": "Goddess Kamakhya",
    "built": "8th century",
    "style": "Nilachal",
    "latitude": 26.1656,
    "longitude": 91.7050,
    "description": "One of the oldest Shakti Peethas"
  },
  {
    "templeId": "temple_028",
    "name": "Lingaraja Temple",
    "state": "Odisha",
    "city": "Bhubaneswar",
    "deity": "Lord Shiva",
    "built": "11th century",
    "style": "Kalinga",
    "latitude": 20.2379,
    "longitude": 85.8337,
    "description": "Largest temple in Bhubaneswar"
  },
  {
    "templeId": "temple_029",
    "name": "Venkateswara Temple",
    "state": "Andhra Pradesh",
    "city": "Tirumala",
    "deity": "Lord Venkateswara",
    "built": "300 CE",
    "style": "Dravidian",
    "latitude": 13.6833,
    "longitude": 79.3472,
    "description": "Most visited place of worship in the world"
  },
  {
    "templeId": "temple_030",
    "name": "Lepakshi Temple",
    "state": "Andhra Pradesh",
    "city": "Lepakshi",
    "deity": "Lord Veerabhadra",
    "built": "16th century",
    "style": "Vijayanagara",
    "latitude": 13.8283,
    "longitude": 77.6044,
    "description": "Famous for its hanging pillar and monolithic Nandi"
  },
  {
    "templeId": "temple_031",
    "name": "Srikalahasti Temple",
    "state": "Andhra Pradesh",
    "city": "Srikalahasti",
    "deity": "Lord Shiva",
    "built": "5th century",
    "style": "Dravidian",
    "latitude": 13.7500,
    "longitude": 79.7000,
    "description": "One of the Pancha Bhoota Sthalas representing wind"
  },
  {
    "templeId": "temple_032",
    "name": "Srisailam Temple",
    "state": "Andhra Pradesh",
    "city": "Srisailam",
    "deity": "Lord Mallikarjuna",
    "built": "Ancient",
    "style": "Dravidian",
    "latitude": 16.0736,
    "longitude": 78.8683,
    "description": "One of the twelve Jyotirlingas and Shakti Peetha"
  },
  {
    "templeId": "temple_033",
    "name": "Simhachalam Temple",
    "state": "Andhra Pradesh",
    "city": "Visakhapatnam",
    "deity": "Lord Narasimha",
    "built": "11th century",
    "style": "Kalinga",
    "latitude": 17.7667,
    "longitude": 83.2167,
    "description": "Famous Narasimha temple on a hill"
  },
  {
    "templeId": "temple_034",
    "name": "Annavaram Temple",
    "state": "Andhra Pradesh",
    "city": "Annavaram",
    "deity": "Lord Satyanarayana",
    "built": "Ancient",
    "style": "Dravidian",
    "latitude": 17.2833,
    "longitude": 82.1000,
    "description": "Famous Satyanarayana Swamy temple"
  },
  {
    "templeId": "temple_035",
    "name": "Bhadrachalam Temple",
    "state": "Telangana",
    "city": "Bhadrachalam",
    "deity": "Lord Rama",
    "built": "17th century",
    "style": "Dravidian",
    "latitude": 17.6689,
    "longitude": 80.8936,
    "description": "Famous Rama temple on the banks of Godavari"
  },
  {
    "templeId": "temple_036",
    "name": "Thousand Pillar Temple",
    "state": "Telangana",
    "city": "Warangal",
    "deity": "Lord Shiva",
    "built": "12th century",
    "style": "Kakatiya",
    "latitude": 18.0000,
    "longitude": 79.5833,
    "description": "Architectural marvel with intricate carvings"
  },
  {
    "templeId": "temple_037",
    "name": "Birla Mandir",
    "state": "Telangana",
    "city": "Hyderabad",
    "deity": "Lord Venkateswara",
    "built": "1976",
    "style": "Modern",
    "latitude": 17.4065,
    "longitude": 78.4691,
    "description": "Modern temple made of white marble"
  },
  {
    "templeId": "temple_038",
    "name": "Ranganathaswamy Temple",
    "state": "Tamil Nadu",
    "city": "Srirangam",
    "deity": "Lord Ranganatha",
    "built": "10th century",
    "style": "Dravidian",
    "latitude": 10.8667,
    "longitude": 78.6833,
    "description": "Largest functioning Hindu temple in the world"
  },
  {
    "templeId": "temple_039",
    "name": "Kapaleeshwarar Temple",
    "state": "Tamil Nadu",
    "city": "Chennai",
    "deity": "Lord Shiva",
    "built": "7th century",
    "style": "Dravidian",
    "latitude": 13.0333,
    "longitude": 80.2667,
    "description": "Famous Shiva temple in Chennai"
  },
  {
    "templeId": "temple_040",
    "name": "Ekambareswarar Temple",
    "state": "Tamil Nadu",
    "city": "Kanchipuram",
    "deity": "Lord Shiva",
    "built": "600 CE",
    "style": "Dravidian",
    "latitude": 12.8500,
    "longitude": 79.7000,
    "description": "One of the Pancha Bhoota Sthalas representing earth"
  },
  {
    "templeId": "temple_041",
    "name": "Varadharaja Perumal Temple",
    "state": "Tamil Nadu",
    "city": "Kanchipuram",
    "deity": "Lord Vishnu",
    "built": "11th century",
    "style": "Dravidian",
    "latitude": 12.8333,
    "longitude": 79.7000,
    "description": "One of the 108 Divya Desams"
  },
  {
    "templeId": "temple_042",
    "name": "Nataraja Temple",
    "state": "Tamil Nadu",
    "city": "Chidambaram",
    "deity": "Lord Nataraja",
    "built": "10th century",
    "style": "Dravidian",
    "latitude": 11.3997,
    "longitude": 79.6950,
    "description": "One of the Pancha Bhoota Sthalas representing space"
  },
  {
    "templeId": "temple_043",
    "name": "Arunachaleswara Temple",
    "state": "Tamil Nadu",
    "city": "Tiruvannamalai",
    "deity": "Lord Shiva",
    "built": "9th century",
    "style": "Dravidian",
    "latitude": 12.2333,
    "longitude": 79.0667,
    "description": "One of the Pancha Bhoota Sthalas representing fire"
  },
  {
    "templeId": "temple_044",
    "name": "Jambukeswarar Temple",
    "state": "Tamil Nadu",
    "city": "Tiruchirappalli",
    "deity": "Lord Shiva",
    "built": "2nd century",
    "style": "Dravidian",
    "latitude": 10.8667,
    "longitude": 78.7000,
    "description": "One of the Pancha Bhoota Sthalas representing water"
  },
  {
    "templeId": "temple_045",
    "name": "Murudeshwar Temple",
    "state": "Karnataka",
    "city": "Murudeshwar",
    "deity": "Lord Shiva",
    "built": "2002",
    "style": "Modern",
    "latitude": 14.0942,
    "longitude": 74.4842,
    "description": "Famous for the world's second tallest Shiva statue"
  },
  {
    "templeId": "temple_046",
    "name": "Udupi Krishna Temple",
    "state": "Karnataka",
    "city": "Udupi",
    "deity": "Lord Krishna",
    "built": "13th century",
    "style": "Dvaita",
    "latitude": 13.3389,
    "longitude": 74.7456,
    "description": "Famous Krishna temple founded by Madhvacharya"
  },
  {
    "templeId": "temple_047",
    "name": "Kukke Subramanya Temple",
    "state": "Karnataka",
    "city": "Subramanya",
    "deity": "Lord Subramanya",
    "built": "Ancient",
    "style": "Kerala",
    "latitude": 12.6833,
    "longitude": 75.5667,
    "description": "Famous Subramanya temple in Western Ghats"
  },
  {
    "templeId": "temple_048",
    "name": "Dharmasthala Temple",
    "state": "Karnataka",
    "city": "Dharmasthala",
    "deity": "Lord Manjunatha",
    "built": "800 years ago",
    "style": "Jain-Hindu",
    "latitude": 12.9500,
    "longitude": 75.3833,
    "description": "Unique temple managed by Jain administration"
  },
  {
    "templeId": "temple_049",
    "name": "Kollur Mookambika Temple",
    "state": "Karnataka",
    "city": "Kollur",
    "deity": "Goddess Mookambika",
    "built": "Ancient",
    "style": "Kerala",
    "latitude": 13.8667,
    "longitude": 74.8000,
    "description": "Famous Shakti Peetha in Western Ghats"
  },
  {
    "templeId": "temple_050",
    "name": "Trimbakeshwar Temple",
    "state": "Maharashtra",
    "city": "Trimbak",
    "deity": "Lord Shiva",
    "built": "18th century",
    "style": "Nagara",
    "latitude": 19.9333,
    "longitude": 73.5333,
    "description": "One of the twelve Jyotirlingas, source of Godavari river"
  }
]
